$GPGGA,072403.40,3905.8167128,N,11704.9465486,E,4,18,0.8,1.5930,M,-8.921,M,00,0004*40
$GPGGA,072403.60,3905.8167131,N,11704.9465476,E,4,18,0.8,1.5918,M,-8.921,M,00,0004*4F
$GPGGA,072403.80,3905.8167127,N,11704.9465520,E,4,18,0.8,1.5961,M,-8.921,M,00,0004*4A
$GPGGA,072404.00,3905.8167165,N,11704.9465666,E,4,18,0.8,1.5938,M,-8.921,M,01,0004*4F
$GPZDA,072404.00,19,12,2018,,*63
$GPGGA,072404.20,3905.8167244,N,11704.9466031,E,4,18,0.8,1.5978,M,-8.921,M,01,0004*4E
$GPGGA,072404.40,3905.8167333,N,11704.9466438,E,4,18,0.8,1.5993,M,-8.921,M,00,0004*40
$GPGGA,072404.60,3905.8167456,N,11704.9466916,E,4,18,0.8,1.5940,M,-8.921,M,00,0004*49
$GPGGA,072404.80,3905.8167581,N,11704.9467508,E,4,18,0.8,1.5921,M,-8.921,M,00,0004*49
$GPGGA,072405.00,3905.8167765,N,11704.9468138,E,4,18,0.8,1.5865,M,-8.921,M,01,0004*40
$GPZDA,072405.00,19,12,2018,,*62
$GPGGA,072405.20,3905.8167918,N,11704.9468808,E,4,18,0.8,1.5911,M,-8.921,M,01,0004*4E
$GPGGA,072405.40,3905.8168095,N,11704.9469443,E,4,18,0.8,1.5958,M,-8.921,M,00,0004*45
$GPGGA,072405.60,3905.8168311,N,11704.9470134,E,4,18,0.8,1.5947,M,-8.921,M,00,0004*4B
$GPGGA,072405.80,3905.8168588,N,11704.9470827,E,4,18,0.8,1.5839,M,-8.921,M,00,0004*40
$GPGGA,072406.00,3905.8168817,N,11704.9471600,E,4,18,0.8,1.5914,M,-8.921,M,01,0004*45
$GPZDA,072406.00,19,12,2018,,*61
$GPGGA,072406.20,3905.8169104,N,11704.9472376,E,4,18,0.8,1.5839,M,-8.921,M,01,0004*44
$GPGGA,072406.40,3905.8169343,N,11704.9473164,E,4,18,0.8,1.5877,M,-8.921,M,00,0004*48
$GPGGA,072406.60,3905.8169662,N,11704.9473934,E,4,18,0.8,1.5899,M,-8.921,M,00,0004*41
$GPGGA,072406.80,3905.8169906,N,11704.9474774,E,4,18,0.8,1.6011,M,-8.921,M,00,0004*44
$GPGGA,072407.00,3905.8170166,N,11704.9475564,E,4,18,0.8,1.5847,M,-8.921,M,01,0004*40
$GPZDA,072407.00,19,12,2018,,*60
$GPGGA,072407.20,3905.8170461,N,11704.9476377,E,4,18,0.8,1.5835,M,-8.921,M,01,0004*42
$GPGGA,072407.40,3905.8170727,N,11704.9477139,E,4,18,0.8,1.5936,M,-8.921,M,00,0004*4F
$GPGGA,072407.60,3905.8171063,N,11704.9477954,E,4,18,0.8,1.5839,M,-8.921,M,00,0004*46
$GPGGA,072407.80,3905.8171395,N,11704.9478816,E,4,18,0.8,1.5799,M,-8.921,M,00,0004*4F
$GPGGA,072408.00,3905.8171765,N,11704.9479628,E,4,18,0.8,1.5840,M,-8.921,M,01,0004*4B
$GPZDA,072408.00,19,12,2018,,*6F
$GPGGA,072408.20,3905.8172105,N,11704.9480413,E,4,17,0.9,1.5746,M,-8.921,M,01,0004*41
$GPGGA,072408.40,3905.8172419,N,11704.9481152,E,4,17,0.9,1.5952,M,-8.921,M,00,0004*44
$GPGGA,072408.60,3905.8172768,N,11704.9481901,E,4,17,0.9,1.6018,M,-8.921,M,00,0004*49
$GPGGA,072408.80,3905.8173131,N,11704.9482676,E,4,17,0.9,1.5982,M,-8.921,M,00,0004*49
$GPGGA,072409.00,3905.8173499,N,11704.9483461,E,4,17,0.9,1.6003,M,-8.921,M,01,0004*40
$GPZDA,072409.00,19,12,2018,,*6E
$GPGGA,072409.20,3905.8173881,N,11704.9484191,E,4,17,0.9,1.6074,M,-8.921,M,01,0004*4A
$GPGGA,072409.40,3905.8174302,N,11704.9484929,E,4,17,0.9,1.6065,M,-8.921,M,00,0004*41
$GPGGA,072409.60,3905.8174707,N,11704.9485641,E,4,17,0.9,1.6057,M,-8.921,M,00,0004*43
$GPGGA,072409.80,3905.8175105,N,11704.9486429,E,4,17,0.9,1.6165,M,-8.921,M,00,0004*47
$GPGGA,072410.00,3905.8175542,N,11704.9487163,E,4,17,0.9,1.6262,M,-8.921,M,01,0004*4F
$GPZDA,072410.00,19,12,2018,,*66
$GPGGA,072410.20,3905.8176015,N,11704.9487985,E,4,17,0.9,1.6086,M,-8.921,M,01,0004*41
$GPGGA,072410.40,3905.8176413,N,11704.9488672,E,4,17,0.9,1.6119,M,-8.921,M,00,0004*4B
$GPGGA,072410.60,3905.8176874,N,11704.9489431,E,4,17,0.9,1.6152,M,-8.921,M,00,0004*4F
$GPGGA,072410.80,3905.8177293,N,11704.9490140,E,4,16,0.9,1.6090,M,-8.921,M,00,0004*46
$GPGGA,072411.00,3905.8177742,N,11704.9490940,E,4,16,0.9,1.6073,M,-8.921,M,01,0004*42
$GPZDA,072411.00,19,12,2018,,*67
$GPGGA,072411.20,3905.8178168,N,11704.9491597,E,4,16,0.9,1.6071,M,-8.921,M,01,0004*44
$GPGGA,072411.40,3905.8178637,N,11704.9492288,E,4,16,0.9,1.6267,M,-8.921,M,00,0004*41
$GPGGA,072411.60,3905.8179126,N,11704.9493000,E,4,16,0.9,1.6303,M,-8.921,M,00,0004*45
$GPGGA,072411.80,3905.8179623,N,11704.9493607,E,4,16,0.9,1.6171,M,-8.921,M,00,0004*4F
$GPGGA,072412.00,3905.8180033,N,11704.9494293,E,4,16,0.9,1.6412,M,-8.921,M,01,0004*4A
$GPZDA,072412.00,19,12,2018,,*64
$GPGGA,072412.20,3905.8180520,N,11704.9494934,E,4,17,0.9,1.6195,M,-8.921,M,01,0004*42
$GPGGA,072412.40,3905.8180962,N,11704.9495582,E,4,17,0.9,1.6340,M,-8.921,M,00,0004*45
$GPGGA,072412.60,3905.8181434,N,11704.9496147,E,4,17,0.9,1.6268,M,-8.921,M,00,0004*4D
$GPGGA,072412.80,3905.8181853,N,11704.9496765,E,4,17,0.9,1.6201,M,-8.921,M,00,0004*47
$GPGGA,072413.00,3905.8182307,N,11704.9497317,E,4,17,0.9,1.6185,M,-8.921,M,01,0004*49
$GPZDA,072413.00,19,12,2018,,*65
$GPGGA,072413.20,3905.8182765,N,11704.9497906,E,4,17,0.9,1.6123,M,-8.921,M,01,0004*4D
$GPGGA,072413.40,3905.8183299,N,11704.9498475,E,4,17,0.9,1.6229,M,-8.921,M,00,0004*42
$GPGGA,072413.60,3905.8183828,N,11704.9499082,E,4,17,0.9,1.6224,M,-8.921,M,00,0004*40
$GPGGA,072413.80,3905.8184411,N,11704.9499623,E,4,17,0.9,1.6249,M,-8.921,M,00,0004*49
$GPGGA,072414.00,3905.8185057,N,11704.9500322,E,4,17,0.9,1.6151,M,-8.921,M,01,0004*4F
$GPZDA,072414.00,19,12,2018,,*62
$GPGGA,072414.20,3905.8185678,N,11704.9500948,E,4,17,0.9,1.6111,M,-8.921,M,01,0004*44
$GPGGA,072414.40,3905.8186281,N,11704.9501509,E,4,17,0.9,1.6211,M,-8.921,M,00,0004*49
$GPGGA,072414.60,3905.8186901,N,11704.9502141,E,4,17,0.9,1.6142,M,-8.921,M,00,0004*46
$GPGGA,072414.80,3905.8187511,N,11704.9502644,E,4,17,0.9,1.6255,M,-8.921,M,00,0004*43
$GPGGA,072415.00,3905.8188095,N,11704.9503232,E,4,16,0.9,1.6357,M,-8.921,M,01,0004*4B
$GPZDA,072415.00,19,12,2018,,*63
$GPGGA,072415.20,3905.8188730,N,11704.9503798,E,4,16,0.9,1.6433,M,-8.921,M,01,0004*41
$GPGGA,072415.40,3905.8189398,N,11704.9504370,E,4,16,0.9,1.6292,M,-8.921,M,00,0004*49
$GPGGA,072415.60,3905.8190078,N,11704.9504956,E,4,16,0.9,1.6319,M,-8.921,M,00,0004*42
$GPGGA,072415.80,3905.8190702,N,11704.9505549,E,4,16,0.9,1.6348,M,-8.921,M,00,0004*41
$GPGGA,072416.00,3905.8191278,N,11704.9506073,E,4,16,0.9,1.6371,M,-8.921,M,01,0004*47
$GPZDA,072416.00,19,12,2018,,*60
$GPGGA,072416.20,3905.8191905,N,11704.9506569,E,4,16,0.9,1.6372,M,-8.921,M,01,0004*49
$GPGGA,072416.40,3905.8192544,N,11704.9507111,E,4,16,0.9,1.6413,M,-8.921,M,00,0004*4E
$GPGGA,072416.60,3905.8193222,N,11704.9507655,E,4,16,0.9,1.6284,M,-8.921,M,00,0004*45
$GPGGA,072416.80,3905.8193862,N,11704.9508286,E,4,16,0.9,1.6297,M,-8.921,M,00,0004*42
$GPGGA,072417.00,3905.8194480,N,11704.9508761,E,4,16,0.9,1.6323,M,-8.921,M,01,0004*4F
$GPZDA,072417.00,19,12,2018,,*61
$GPGGA,072417.20,3905.8195163,N,11704.9509267,E,4,16,0.9,1.6320,M,-8.921,M,01,0004*45
$GPGGA,072417.40,3905.8195863,N,11704.9509814,E,4,16,0.9,1.6341,M,-8.921,M,00,0004*42
$GPGGA,072417.60,3905.8196566,N,11704.9510331,E,4,16,0.9,1.6430,M,-8.921,M,00,0004*4E
$GPGGA,072417.80,3905.8197262,N,11704.9510851,E,4,16,0.9,1.6428,M,-8.921,M,00,0004*46
$GPGGA,072418.00,3905.8197888,N,11704.9511274,E,4,16,0.9,1.6324,M,-8.921,M,01,0004*49
$GPZDA,072418.00,19,12,2018,,*6E
$GPGGA,072418.20,3905.8198512,N,11704.9511624,E,4,16,0.9,1.6312,M,-8.921,M,01,0004*4E
$GPGGA,072418.40,3905.8199202,N,11704.9511988,E,4,16,0.9,1.6294,M,-8.921,M,00,0004*48
$GPGGA,072418.60,3905.8199886,N,11704.9512309,E,4,16,0.9,1.6336,M,-8.921,M,00,0004*45
$GPGGA,072418.80,3905.8200623,N,11704.9512663,E,4,16,0.9,1.6313,M,-8.921,M,00,0004*47
$GPGGA,072419.00,3905.8201362,N,11704.9513054,E,4,16,0.9,1.6270,M,-8.921,M,01,0004*49
$GPZDA,072419.00,19,12,2018,,*6F
$GPGGA,072419.20,3905.8202100,N,11704.9513323,E,4,16,0.9,1.6298,M,-8.921,M,01,0004*4B
$GPGGA,072419.40,3905.8202832,N,11704.9513642,E,4,16,0.9,1.6424,M,-8.921,M,00,0004*47
$GPGGA,072419.60,3905.8203610,N,11704.9513923,E,4,16,0.9,1.6369,M,-8.921,M,00,0004*4C
$GPGGA,072419.80,3905.8204354,N,11704.9514186,E,4,16,0.9,1.6453,M,-8.921,M,00,0004*4E
$GPGGA,072420.00,3905.8205115,N,11704.9514506,E,4,16,0.9,1.6388,M,-8.921,M,01,0004*46
$GPZDA,072420.00,19,12,2018,,*65
$GPGGA,072420.20,3905.8205852,N,11704.9514799,E,4,16,0.9,1.6408,M,-8.921,M,01,0004*45
$GPGGA,072420.40,3905.8206615,N,11704.9515087,E,4,16,0.9,1.6328,M,-8.921,M,00,0004*40
$GPGGA,072420.60,3905.8207380,N,11704.9515378,E,4,16,0.9,1.6180,M,-8.921,M,00,0004*49
$GPGGA,072420.80,3905.8208124,N,11704.9515532,E,4,16,0.9,1.6236,M,-8.921,M,00,0004*42
$GPGGA,072421.00,3905.8208910,N,11704.9515792,E,4,16,1.0,1.6265,M,-8.921,M,01,0004*43
$GPZDA,072421.00,19,12,2018,,*64
$GPGGA,072421.20,3905.8209670,N,11704.9516094,E,4,16,1.0,1.6358,M,-8.921,M,01,0004*44
$GPGGA,072421.40,3905.8210485,N,11704.9516303,E,4,16,1.0,1.6342,M,-8.921,M,00,0004*45
$GPGGA,072421.60,3905.8211300,N,11704.9516604,E,4,16,0.9,1.6253,M,-8.921,M,00,0004*47
$GPGGA,072421.80,3905.8212087,N,11704.9516873,E,4,16,0.9,1.6063,M,-8.921,M,00,0004*49
$GPGGA,072422.00,3905.8212832,N,11704.9517026,E,4,16,0.9,1.6224,M,-8.921,M,01,0004*4D
$GPZDA,072422.00,19,12,2018,,*67
$GPGGA,072422.20,3905.8213617,N,11704.9517193,E,4,16,0.9,1.6309,M,-8.921,M,01,0004*46
$GPGGA,072422.40,3905.8214381,N,11704.9517298,E,4,17,0.9,1.6244,M,-8.921,M,00,0004*4D
$GPGGA,072422.60,3905.8215154,N,11704.9517425,E,4,17,0.9,1.6323,M,-8.921,M,00,0004*44
$GPGGA,072422.80,3905.8215908,N,11704.9517566,E,4,17,0.9,1.6268,M,-8.921,M,00,0004*43
$GPGGA,072423.00,3905.8216674,N,11704.9517679,E,4,17,0.9,1.6151,M,-8.921,M,01,0004*48
$GPZDA,072423.00,19,12,2018,,*66
$GPGGA,072423.20,3905.8217421,N,11704.9517735,E,4,17,0.9,1.6271,M,-8.921,M,01,0004*41
$GPGGA,072423.40,3905.8218165,N,11704.9517776,E,4,17,0.9,1.6340,M,-8.921,M,00,0004*48
$GPGGA,072423.60,3905.8218918,N,11704.9517830,E,4,17,0.9,1.6218,M,-8.921,M,00,0004*49
$GPGGA,072423.80,3905.8219658,N,11704.9517830,E,4,17,0.9,1.6345,M,-8.921,M,00,0004*44
$GPGGA,072424.00,3905.8220423,N,11704.9517823,E,4,17,0.9,1.6401,M,-8.921,M,01,0004*4B
$GPZDA,072424.00,19,12,2018,,*61
$GPGGA,072424.20,3905.8221232,N,11704.9517830,E,4,17,0.9,1.6411,M,-8.921,M,01,0004*4D
$GPGGA,072424.40,3905.8222037,N,11704.9517828,E,4,17,0.9,1.6471,M,-8.921,M,00,0004*41
$GPGGA,072424.60,3905.8222871,N,11704.9517848,E,4,17,0.9,1.6460,M,-8.921,M,00,0004*4F
$GPGGA,072424.80,3905.8223726,N,11704.9517794,E,4,17,0.9,1.6422,M,-8.921,M,00,0004*45
$GPGGA,072425.00,3905.8224544,N,11704.9517779,E,4,17,0.9,1.6323,M,-8.921,M,01,0004*49
$GPZDA,072425.00,19,12,2018,,*60
$GPGGA,072425.20,3905.8225340,N,11704.9517749,E,4,17,0.9,1.6311,M,-8.921,M,01,0004*4A
$GPGGA,072425.40,3905.8226113,N,11704.9517634,E,4,17,0.9,1.6507,M,-8.921,M,00,0004*40
$GPGGA,072425.60,3905.8226887,N,11704.9517495,E,4,17,0.9,1.6443,M,-8.921,M,00,0004*4E
$GPGGA,072425.80,3905.8227660,N,11704.9517339,E,4,17,0.9,1.6393,M,-8.921,M,00,0004*4D
$GPGGA,072426.00,3905.8228487,N,11704.9517228,E,4,17,0.9,1.6317,M,-8.921,M,01,0004*4E
$GPZDA,072426.00,19,12,2018,,*63
$GPGGA,072426.20,3905.8229261,N,11704.9517069,E,4,17,0.9,1.6496,M,-8.921,M,01,0004*4A
$GPGGA,072426.40,3905.8230068,N,11704.9516887,E,4,17,0.9,1.6504,M,-8.921,M,00,0004*4D
$GPGGA,072426.60,3905.8230888,N,11704.9516707,E,4,17,0.9,1.6434,M,-8.921,M,00,0004*4C
$GPGGA,072426.80,3905.8231702,N,11704.9516424,E,4,17,0.9,1.6374,M,-8.921,M,00,0004*4F
$GPGGA,072427.00,3905.8232537,N,11704.9516282,E,4,17,0.9,1.6402,M,-8.921,M,01,0004*4C
$GPZDA,072427.00,19,12,2018,,*62
$GPGGA,072427.20,3905.8233350,N,11704.9516028,E,4,17,0.9,1.6310,M,-8.921,M,01,0004*4E
$GPGGA,072427.40,3905.8234179,N,11704.9515765,E,4,17,0.9,1.6432,M,-8.921,M,00,0004*4D
$GPGGA,072427.60,3905.8234987,N,11704.9515499,E,4,17,0.9,1.6405,M,-8.921,M,00,0004*42
$GPGGA,072427.80,3905.8235817,N,11704.9515240,E,4,17,0.9,1.6314,M,-8.921,M,00,0004*40
$GPGGA,072428.00,3905.8236625,N,11704.9514942,E,4,17,0.9,1.6328,M,-8.921,M,01,0004*4D
$GPZDA,072428.00,19,12,2018,,*6D
$GPGGA,072428.20,3905.8237489,N,11704.9514586,E,4,17,0.9,1.6180,M,-8.921,M,01,0004*4E
$GPGGA,072428.40,3905.8238380,N,11704.9514219,E,4,17,0.9,1.6204,M,-8.921,M,00,0004*46
$GPGGA,072428.60,3905.8239272,N,11704.9513864,E,4,18,0.8,1.6241,M,-8.921,M,00,0004*41
$GPGGA,072428.80,3905.8240144,N,11704.9513482,E,4,18,0.8,1.6156,M,-8.921,M,00,0004*46
$GPGGA,072429.00,3905.8241028,N,11704.9513068,E,4,18,0.8,1.6061,M,-8.921,M,01,0004*41
$GPZDA,072429.00,19,12,2018,,*6C
$GPGGA,072429.20,3905.8241828,N,11704.9512685,E,4,18,0.8,1.6157,M,-8.921,M,01,0004*4B
$GPGGA,072429.40,3905.8242704,N,11704.9512279,E,4,18,0.8,1.6005,M,-8.921,M,00,0004*4F
$GPGGA,072429.60,3905.8243423,N,11704.9511851,E,4,18,0.8,1.6058,M,-8.921,M,00,0004*41
$GPGGA,072429.80,3905.8244217,N,11704.9511478,E,4,18,0.8,1.5945,M,-8.921,M,00,0004*48
$GPGGA,072430.00,3905.8244988,N,11704.9510980,E,4,18,0.8,1.6105,M,-8.921,M,01,0004*40
$GPZDA,072430.00,19,12,2018,,*64
$GPGGA,072430.20,3905.8245753,N,11704.9510547,E,4,18,0.8,1.6030,M,-8.921,M,01,0004*4B
$GPGGA,072430.40,3905.8246503,N,11704.9510079,E,4,18,0.8,1.6011,M,-8.921,M,00,0004*43
$GPGGA,072430.60,3905.8247203,N,11704.9509618,E,4,18,0.8,1.5998,M,-8.921,M,00,0004*45
$GPGGA,072430.80,3905.8247882,N,11704.9509189,E,4,18,0.8,1.5966,M,-8.921,M,00,0004*46
$GPGGA,072431.00,3905.8248581,N,11704.9508660,E,4,18,0.8,1.5949,M,-8.921,M,01,0004*43
$GPZDA,072431.00,19,12,2018,,*65
$GPGGA,072431.20,3905.8249249,N,11704.9508111,E,4,18,0.8,1.5974,M,-8.921,M,01,0004*4C
$GPGGA,072431.40,3905.8249920,N,11704.9507587,E,4,18,0.8,1.6074,M,-8.921,M,00,0004*41
$GPGGA,072431.60,3905.8250623,N,11704.9507052,E,4,18,0.8,1.5952,M,-8.921,M,00,0004*44
$GPGGA,072431.80,3905.8251272,N,11704.9506489,E,4,18,0.8,1.6066,M,-8.921,M,00,0004*45
$GPGGA,072432.00,3905.8251929,N,11704.9505990,E,4,18,0.8,1.5912,M,-8.921,M,01,0004*45
$GPZDA,072432.00,19,12,2018,,*66
$GPGGA,072432.20,3905.8252494,N,11704.9505425,E,4,18,0.8,1.6152,M,-8.921,M,01,0004*43
$GPGGA,072432.40,3905.8253137,N,11704.9504943,E,4,18,0.8,1.6049,M,-8.921,M,00,0004*4E
$GPGGA,072432.60,3905.8253718,N,11704.9504336,E,4,18,0.8,1.6024,M,-8.921,M,00,0004*44
$GPGGA,072432.80,3905.8254325,N,11704.9503883,E,4,18,0.8,1.5986,M,-8.921,M,00,0004*47
$GPGGA,072433.00,3905.8254894,N,11704.9503319,E,4,18,0.8,1.6015,M,-8.921,M,01,0004*46
$GPZDA,072433.00,19,12,2018,,*67
$GPGGA,072433.20,3905.8255497,N,11704.9502790,E,4,18,0.8,1.6069,M,-8.921,M,01,0004*45
$GPGGA,072433.40,3905.8256074,N,11704.9502179,E,4,18,0.8,1.6178,M,-8.921,M,00,0004*48
$GPGGA,072433.60,3905.8256682,N,11704.9501588,E,4,18,0.8,1.6015,M,-8.921,M,00,0004*46
$GPGGA,072433.80,3905.8257294,N,11704.9500982,E,4,18,0.8,1.6066,M,-8.921,M,00,0004*49
$GPGGA,072434.00,3905.8257828,N,11704.9500454,E,4,18,0.8,1.6108,M,-8.921,M,01,0004*45
$GPZDA,072434.00,19,12,2018,,*60
$GPGGA,072434.20,3905.8258438,N,11704.9499847,E,4,18,0.8,1.6036,M,-8.921,M,01,0004*46
$GPGGA,072434.40,3905.8259010,N,11704.9499191,E,4,18,0.8,1.5986,M,-8.921,M,00,0004*4D
$GPGGA,072434.60,3905.8259583,N,11704.9498568,E,4,18,0.8,1.5952,M,-8.921,M,00,0004*4A
$GPGGA,072434.80,3905.8260179,N,11704.9497863,E,4,17,0.8,1.5901,M,-8.921,M,00,0004*4F
$GPGGA,072435.00,3905.8260739,N,11704.9497181,E,4,17,0.8,1.6039,M,-8.921,M,01,0004*41
$GPZDA,072435.00,19,12,2018,,*61
$GPGGA,072435.20,3905.8261311,N,11704.9496429,E,4,16,0.8,1.6194,M,-8.921,M,01,0004*4D
$GPGGA,072435.40,3905.8261934,N,11704.9495717,E,4,16,0.8,1.5920,M,-8.921,M,00,0004*4E
$GPGGA,072435.60,3905.8262485,N,11704.9495031,E,4,16,0.8,1.5980,M,-8.921,M,00,0004*41
$GPGGA,072435.80,3905.8263058,N,11704.9494248,E,4,16,1.0,1.6091,M,-8.921,M,00,0004*44
$GPGGA,072436.00,3905.8263589,N,11704.9493539,E,4,16,0.8,1.6044,M,-8.921,M,01,0004*40
$GPZDA,072436.00,19,12,2018,,*62
$GPGGA,072436.20,3905.8264062,N,11704.9492789,E,4,16,0.8,1.6295,M,-8.921,M,01,0004*43
$GPGGA,072436.40,3905.8264651,N,11704.9492111,E,4,16,0.8,1.5897,M,-8.921,M,00,0004*4E
$GPGGA,072436.60,3905.8265102,N,11704.9491301,E,4,16,1.0,1.6217,M,-8.921,M,00,0004*44
$GPGGA,072436.80,3905.8265615,N,11704.9490493,E,4,16,0.8,1.6032,M,-8.921,M,00,0004*4A
$GPGGA,072437.00,3905.8266139,N,11704.9489686,E,4,16,1.0,1.5940,M,-8.921,M,01,0004*40
$GPZDA,072437.00,19,12,2018,,*63
$GPGGA,072437.20,3905.8266631,N,11704.9488860,E,4,15,1.0,1.5990,M,-8.921,M,01,0004*44
$GPGGA,072437.40,3905.8267162,N,11704.9488048,E,4,15,1.0,1.5898,M,-8.921,M,00,0004*48
$GPGGA,072437.60,3905.8267627,N,11704.9487190,E,4,15,1.0,1.6012,M,-8.921,M,00,0004*4E
$GPGGA,072437.80,3905.8268109,N,11704.9486390,E,4,15,1.0,1.5970,M,-8.921,M,00,0004*49
$GPGGA,072438.00,3905.8268509,N,11704.9485522,E,4,15,1.0,1.6354,M,-8.921,M,01,0004*48
$GPZDA,072438.00,19,12,2018,,*6C
$GPGGA,072438.20,3905.8268997,N,11704.9484754,E,4,15,1.0,1.6137,M,-8.921,M,01,0004*44
$GPGGA,072438.40,3905.8269457,N,11704.9483876,E,4,15,1.0,1.5962,M,-8.921,M,00,0004*40
$GPGGA,072438.60,3905.8269821,N,11704.9482982,E,4,15,1.0,1.6158,M,-8.921,M,00,0004*46
$GPGGA,072438.80,3905.8270282,N,11704.9482172,E,4,15,1.0,1.6086,M,-8.921,M,00,0004*46
$GPGGA,072439.00,3905.8270657,N,11704.9481276,E,4,15,1.0,1.6210,M,-8.921,M,01,0004*4B
$GPZDA,072439.00,19,12,2018,,*6D
$GPGGA,072439.20,3905.8271082,N,11704.9480337,E,4,15,1.0,1.6054,M,-8.921,M,01,0004*41
$GPGGA,072439.40,3905.8271468,N,11704.9479443,E,4,15,1.0,1.6055,M,-8.921,M,00,0004*45
$GPGGA,072439.60,3905.8271853,N,11704.9478570,E,4,15,1.0,1.5904,M,-8.921,M,00,0004*4D
$GPGGA,072439.80,3905.8272185,N,11704.9477645,E,4,15,1.0,1.5817,M,-8.921,M,00,0004*4B
$GPGGA,072440.00,3905.8272500,N,11704.9476736,E,4,15,1.0,1.5940,M,-8.921,M,01,0004*42
$GPZDA,072440.00,19,12,2018,,*63
$GPGGA,072440.20,3905.8272801,N,11704.9475787,E,4,15,1.0,1.5906,M,-8.921,M,01,0004*47
$GPGGA,072440.40,3905.8273065,N,11704.9474934,E,4,15,1.0,1.6150,M,-8.921,M,00,0004*44
$GPGGA,072440.60,3905.8273327,N,11704.9474044,E,4,15,1.0,1.6240,M,-8.921,M,00,0004*4F
$GPGGA,072440.80,3905.8273647,N,11704.9473080,E,4,15,1.0,1.6090,M,-8.921,M,00,0004*42
$GPGGA,072441.00,3905.8274003,N,11704.9472154,E,4,15,1.0,1.5739,M,-8.921,M,01,0004*45
$GPZDA,072441.00,19,12,2018,,*62
$GPGGA,072441.20,3905.8274214,N,11704.9471171,E,4,15,1.0,1.6048,M,-8.921,M,01,0004*45
$GPGGA,072441.40,3905.8274537,N,11704.9470232,E,4,15,1.0,1.5802,M,-8.921,M,00,0004*44
$GPGGA,072441.60,3905.8274734,N,11704.9469326,E,4,15,1.0,1.5964,M,-8.921,M,00,0004*4A
$GPGGA,072441.80,3905.8274946,N,11704.9468419,E,4,15,1.0,1.6200,M,-8.921,M,00,0004*4F
$GPGGA,072442.00,3905.8275210,N,11704.9467590,E,4,15,1.0,1.6073,M,-8.921,M,01,0004*45
$GPZDA,072442.00,19,12,2018,,*61
$GPGGA,072442.20,3905.8275400,N,11704.9466757,E,4,15,1.0,1.5917,M,-8.921,M,01,0004*40
$GPGGA,072442.40,3905.8275645,N,11704.9465937,E,4,15,1.0,1.5859,M,-8.921,M,00,0004*44
$GPGGA,072442.60,3905.8275757,N,11704.9465159,E,4,15,1.0,1.5962,M,-8.921,M,00,0004*4D
$GPGGA,072442.80,3905.8275954,N,11704.9464431,E,4,15,1.0,1.6148,M,-8.921,M,00,0004*47
$GPGGA,072443.00,3905.8276162,N,11704.9463578,E,4,15,1.0,1.5959,M,-8.921,M,01,0004*41
$GPZDA,072443.00,19,12,2018,,*60
$GPGGA,072443.20,3905.8276369,N,11704.9462605,E,4,14,1.0,1.5990,M,-8.921,M,01,0004*46
$GPGGA,072443.40,3905.8276602,N,11704.9461574,E,4,14,1.0,1.5903,M,-8.921,M,00,0004*45
$GPGGA,072443.60,3905.8276742,N,11704.9460524,E,4,14,1.0,1.5978,M,-8.921,M,00,0004*4A
$GPGGA,072443.80,3905.8276961,N,11704.9459372,E,4,14,1.0,1.5989,M,-8.921,M,00,0004*4A
$GPGGA,072444.00,3905.8277137,N,11704.9458236,E,4,14,1.0,1.6141,M,-8.921,M,01,0004*41
$GPZDA,072444.00,19,12,2018,,*67
$GPGGA,072444.20,3905.8277284,N,11704.9457007,E,4,14,1.0,1.6154,M,-8.921,M,01,0004*43
$GPGGA,072444.40,3905.8277440,N,11704.9455754,E,4,14,1.0,1.6146,M,-8.921,M,00,0004*4A
$GPGGA,072444.60,3905.8277566,N,11704.9454530,E,4,14,1.0,1.6097,M,-8.921,M,00,0004*41
$GPGGA,072444.80,3905.8277683,N,11704.9453319,E,4,14,1.0,1.6177,M,-8.921,M,00,0004*42
$GPGGA,072445.00,3905.8277772,N,11704.9452123,E,4,14,1.0,1.6113,M,-8.921,M,01,0004*4D
$GPZDA,072445.00,19,12,2018,,*66
$GPGGA,072445.20,3905.8277799,N,11704.9451058,E,4,14,1.0,1.6098,M,-8.921,M,01,0004*46
$GPGGA,072445.40,3905.8277871,N,11704.9450135,E,4,14,1.0,1.6071,M,-8.921,M,00,0004*44
$GPGGA,072445.60,3905.8277911,N,11704.9449253,E,4,14,1.0,1.6068,M,-8.921,M,00,0004*42
$GPGGA,072445.80,3905.8277897,N,11704.9448478,E,4,15,1.0,1.6142,M,-8.921,M,00,0004*45
$GPGGA,072446.00,3905.8277919,N,11704.9447808,E,4,15,1.0,1.6072,M,-8.921,M,01,0004*4E
$GPZDA,072446.00,19,12,2018,,*65
$GPGGA,072446.20,3905.8277935,N,11704.9447159,E,4,15,1.0,1.6092,M,-8.921,M,01,0004*41
$GPGGA,072446.40,3905.8277933,N,11704.9446424,E,4,15,1.0,1.6239,M,-8.921,M,00,0004*4D
$GPGGA,072446.60,3905.8278003,N,11704.9445722,E,4,15,1.0,1.6038,M,-8.921,M,00,0004*4F
$GPGGA,072446.80,3905.8277973,N,11704.9444866,E,4,15,1.0,1.6057,M,-8.921,M,00,0004*47
$GPGGA,072447.00,3905.8277979,N,11704.9443859,E,4,15,1.0,1.6175,M,-8.921,M,01,0004*4F
$GPZDA,072447.00,19,12,2018,,*64
$GPGGA,072447.20,3905.8277932,N,11704.9442737,E,4,16,0.9,1.6248,M,-8.921,M,01,0004*42
$GPGGA,072447.40,3905.8277892,N,11704.9441524,E,4,16,0.9,1.6299,M,-8.921,M,00,0004*41
$GPGGA,072447.60,3905.8277831,N,11704.9440333,E,4,16,0.9,1.6394,M,-8.921,M,00,0004*47
$GPGGA,072447.80,3905.8277739,N,11704.9439155,E,4,16,0.9,1.6356,M,-8.921,M,00,0004*4C
$GPGGA,072448.00,3905.8277648,N,11704.9437945,E,4,16,0.9,1.6298,M,-8.921,M,01,0004*49
$GPZDA,072448.00,19,12,2018,,*6B
$GPGGA,072448.20,3905.8277506,N,11704.9436648,E,4,16,0.9,1.6305,M,-8.921,M,01,0004*44
$GPGGA,072448.40,3905.8277312,N,11704.9435438,E,4,16,0.9,1.6306,M,-8.921,M,00,0004*45
$GPGGA,072448.60,3905.8277103,N,11704.9434131,E,4,16,0.9,1.6254,M,-8.921,M,00,0004*4E
$GPGGA,072448.80,3905.8276878,N,11704.9432846,E,4,16,0.9,1.6273,M,-8.921,M,00,0004*4E
$GPGGA,072449.00,3905.8276615,N,11704.9431621,E,4,16,0.9,1.6193,M,-8.921,M,01,0004*42
$GPZDA,072449.00,19,12,2018,,*6A
$GPGGA,072449.20,3905.8276336,N,11704.9430416,E,4,16,0.9,1.6159,M,-8.921,M,01,0004*45
$GPGGA,072449.40,3905.8276004,N,11704.9429162,E,4,16,0.9,1.6273,M,-8.922,M,00,0004*46
$GPGGA,072449.60,3905.8275697,N,11704.9427945,E,4,16,0.9,1.6250,M,-8.922,M,00,0004*49
$GPGGA,072449.80,3905.8275346,N,11704.9426677,E,4,16,0.9,1.6378,M,-8.922,M,00,0004*4A
$GPGGA,072450.00,3905.8275063,N,11704.9425400,E,4,16,0.9,1.6223,M,-8.922,M,01,0004*41
$GPZDA,072450.00,19,12,2018,,*62
$GPGGA,072450.20,3905.8274736,N,11704.9424193,E,4,16,0.9,1.6323,M,-8.922,M,01,0004*4A
$GPGGA,072450.40,3905.8274417,N,11704.9422932,E,4,16,0.9,1.6334,M,-8.922,M,00,0004*4E
$GPGGA,072450.60,3905.8274099,N,11704.9421678,E,4,16,0.9,1.6248,M,-8.922,M,00,0004*46
$GPGGA,072450.80,3905.8273790,N,11704.9420412,E,4,16,0.9,1.6134,M,-8.922,M,00,0004*46
$GPGGA,072451.00,3905.8273450,N,11704.9419141,E,4,16,0.9,1.6116,M,-8.922,M,01,0004*48
$GPZDA,072451.00,19,12,2018,,*63
$GPGGA,072451.20,3905.8273063,N,11704.9417832,E,4,16,0.9,1.6121,M,-8.922,M,01,0004*49
$GPGGA,072451.40,3905.8272676,N,11704.9416555,E,4,16,0.9,1.6188,M,-8.922,M,00,0004*43
$GPGGA,072451.60,3905.8272222,N,11704.9415300,E,4,16,0.9,1.6119,M,-8.922,M,00,0004*49
$GPGGA,072451.80,3905.8271774,N,11704.9414064,E,4,16,0.9,1.6054,M,-8.922,M,00,0004*4A
$GPGGA,072452.00,3905.8271322,N,11704.9412867,E,4,16,0.9,1.6089,M,-8.922,M,01,0004*4A
$GPZDA,072452.00,19,12,2018,,*60
$GPGGA,072452.20,3905.8270851,N,11704.9411644,E,4,16,0.9,1.6087,M,-8.922,M,01,0004*44
$GPGGA,072452.40,3905.8270388,N,11704.9410494,E,4,16,0.9,1.6014,M,-8.922,M,00,0004*48
$GPGGA,072452.60,3905.8269883,N,11704.9409379,E,4,16,0.9,1.6113,M,-8.922,M,00,0004*48
$GPGGA,072452.80,3905.8269434,N,11704.9408421,E,4,16,0.9,1.6016,M,-8.922,M,00,0004*49
$GPGGA,072453.00,3905.8269001,N,11704.9407497,E,4,16,0.9,1.5950,M,-8.922,M,01,0004*49
$GPZDA,072453.00,19,12,2018,,*61
$GPGGA,072453.20,3905.8268520,N,11704.9406632,E,4,16,0.9,1.6073,M,-8.922,M,01,0004*4B
$GPGGA,072453.40,3905.8268100,N,11704.9405822,E,4,16,0.9,1.6093,M,-8.922,M,00,0004*48
$GPGGA,072453.60,3905.8267686,N,11704.9405061,E,4,16,0.9,1.5984,M,-8.922,M,00,0004*4F
$GPGGA,072453.80,3905.8267258,N,11704.9404383,E,4,16,0.9,1.6044,M,-8.922,M,00,0004*4E
$GPGGA,072454.00,3905.8266833,N,11704.9403678,E,4,16,0.9,1.6055,M,-8.922,M,01,0004*40
$GPZDA,072454.00,19,12,2018,,*66
$GPGGA,072454.20,3905.8266424,N,11704.9402991,E,4,16,0.9,1.6051,M,-8.922,M,01,0004*45
$GPGGA,072454.40,3905.8266006,N,11704.9402346,E,4,16,0.9,1.6073,M,-8.922,M,00,0004*46
$GPGGA,072454.60,3905.8265544,N,11704.9401624,E,4,17,0.8,1.6003,M,-8.922,M,00,0004*41
$GPGGA,072454.80,3905.8265032,N,11704.9400934,E,4,17,0.8,1.6028,M,-8.922,M,00,0004*4D
$GPGGA,072455.00,3905.8264546,N,11704.9400166,E,4,17,0.8,1.6004,M,-8.922,M,01,0004*43
$GPZDA,072455.00,19,12,2018,,*67
$GPGGA,072455.20,3905.8264000,N,11704.9399371,E,4,17,0.8,1.6109,M,-8.922,M,01,0004*49
$GPGGA,072455.40,3905.8263463,N,11704.9398660,E,4,17,0.8,1.5956,M,-8.922,M,00,0004*4D
$GPGGA,072455.60,3905.8262923,N,11704.9397899,E,4,17,0.8,1.5962,M,-8.922,M,00,0004*47
$GPGGA,072455.80,3905.8262372,N,11704.9397147,E,4,17,0.8,1.5969,M,-8.922,M,00,0004*46
$GPGGA,072456.00,3905.8261832,N,11704.9396482,E,4,17,0.8,1.6140,M,-8.922,M,01,0004*4D
$GPZDA,072456.00,19,12,2018,,*64
$GPGGA,072456.20,3905.8261297,N,11704.9395740,E,4,17,0.8,1.6051,M,-8.922,M,01,0004*45
$GPGGA,072456.40,3905.8260752,N,11704.9394918,E,4,17,0.8,1.5959,M,-8.922,M,00,0004*4F
$GPGGA,072456.60,3905.8260127,N,11704.9394159,E,4,17,0.8,1.6074,M,-8.922,M,00,0004*41
$GPGGA,072456.80,3905.8259529,N,11704.9393395,E,4,17,0.8,1.6040,M,-8.922,M,00,0004*4D
$GPGGA,072457.00,3905.8258954,N,11704.9392641,E,4,17,0.8,1.6058,M,-8.922,M,01,0004*46
$GPZDA,072457.00,19,12,2018,,*65
$GPGGA,072457.20,3905.8258302,N,11704.9391902,E,4,17,0.8,1.6048,M,-8.922,M,01,0004*47
$GPGGA,072457.40,3905.8257672,N,11704.9391034,E,4,17,0.8,1.6002,M,-8.922,M,00,0004*4F
$GPGGA,072457.60,3905.8256955,N,11704.9390213,E,4,17,0.8,1.5998,M,-8.922,M,00,0004*49
$GPGGA,072457.80,3905.8256227,N,11704.9389431,E,4,17,0.8,1.6024,M,-8.922,M,00,0004*4A
$GPGGA,072458.00,3905.8255565,N,11704.9388734,E,4,17,0.8,1.5930,M,-8.922,M,01,0004*46
$GPZDA,072458.00,19,12,2018,,*6A
$GPGGA,072458.20,3905.8254917,N,11704.9388068,E,4,17,0.8,1.5955,M,-8.922,M,01,0004*41
$GPGGA,072458.40,3905.8254257,N,11704.9387455,E,4,17,0.8,1.6010,M,-8.922,M,00,0004*47
$GPGGA,072458.60,3905.8253590,N,11704.9386828,E,4,17,0.8,1.5909,M,-8.922,M,00,0004*4B
$GPGGA,072458.80,3905.8252874,N,11704.9386237,E,4,17,0.8,1.6124,M,-8.922,M,00,0004*43
$GPGGA,072459.00,3905.8252196,N,11704.9385642,E,4,17,0.8,1.6115,M,-8.922,M,01,0004*49
$GPZDA,072459.00,19,12,2018,,*6B
$GPGGA,072459.20,3905.8251530,N,11704.9385102,E,4,17,0.8,1.6180,M,-8.922,M,01,0004*4F
$GPGGA,072459.40,3905.8250832,N,11704.9384543,E,4,17,0.8,1.6189,M,-8.922,M,00,0004*4F
$GPGGA,072459.60,3905.8250096,N,11704.9384009,E,4,17,0.8,1.6171,M,-8.922,M,00,0004*47
$GPGGA,072459.80,3905.8249339,N,11704.9383457,E,4,17,0.8,1.6107,M,-8.922,M,00,0004*4E
$GPGGA,072500.00,3905.8248591,N,11704.9382941,E,4,17,0.8,1.6087,M,-8.922,M,01,0004*4D
$GPZDA,072500.00,19,12,2018,,*66
$GPGGA,072500.20,3905.8247900,N,11704.9382507,E,4,17,0.8,1.6082,M,-8.922,M,01,0004*4F
$GPGGA,072500.40,3905.8247240,N,11704.9382054,E,4,17,0.8,1.6052,M,-8.922,M,00,0004*49
$GPGGA,072500.60,3905.8246537,N,11704.9381629,E,4,17,0.8,1.6171,M,-8.922,M,00,0004*42
$GPGGA,072500.80,3905.8245780,N,11704.9381158,E,4,17,0.8,1.6181,M,-8.922,M,00,0004*4F
$GPGGA,072501.00,3905.8244986,N,11704.9380726,E,4,17,0.8,1.6115,M,-8.922,M,01,0004*4D
$GPZDA,072501.00,19,12,2018,,*67
$GPGGA,072501.20,3905.8244196,N,11704.9380226,E,4,17,0.8,1.6167,M,-8.922,M,01,0004*46
$GPGGA,072501.40,3905.8243318,N,11704.9379686,E,4,17,0.8,1.6244,M,-8.922,M,00,0004*48
$GPGGA,072501.60,3905.8242421,N,11704.9379210,E,4,17,0.8,1.6139,M,-8.922,M,00,0004*44
$GPGGA,072501.80,3905.8241498,N,11704.9378718,E,4,17,0.8,1.6163,M,-8.922,M,00,0004*48
$GPGGA,072502.00,3905.8240531,N,11704.9378190,E,4,17,0.8,1.6139,M,-8.922,M,01,0004*48
$GPZDA,072502.00,19,12,2018,,*64
$GPGGA,072502.20,3905.8239565,N,11704.9377696,E,4,17,0.8,1.6269,M,-8.922,M,01,0004*4D
$GPGGA,072502.40,3905.8238621,N,11704.9377257,E,4,17,0.8,1.6070,M,-8.922,M,00,0004*4B
$GPGGA,072502.60,3905.8237666,N,11704.9376835,E,4,17,0.8,1.6167,M,-8.922,M,00,0004*4D
$GPGGA,072502.80,3905.8236709,N,11704.9376403,E,4,17,0.8,1.6145,M,-8.922,M,00,0004*43
$GPGGA,072503.00,3905.8235747,N,11704.9376093,E,4,17,0.8,1.6085,M,-8.922,M,01,0004*42
$GPZDA,072503.00,19,12,2018,,*65
$GPGGA,072503.20,3905.8234725,N,11704.9375718,E,4,17,0.8,1.6035,M,-8.922,M,01,0004*49
$GPGGA,072503.40,3905.8233724,N,11704.9375422,E,4,17,0.8,1.6096,M,-8.922,M,00,0004*4B
$GPGGA,072503.60,3905.8232709,N,11704.9375146,E,4,17,0.8,1.6145,M,-8.922,M,00,0004*4F
$GPGGA,072503.80,3905.8231693,N,11704.9374943,E,4,17,0.8,1.6124,M,-8.922,M,00,0004*4B
$GPGGA,072504.00,3905.8230657,N,11704.9374764,E,4,17,0.8,1.6044,M,-8.922,M,01,0004*40
$GPZDA,072504.00,19,12,2018,,*62
$GPGGA,072504.20,3905.8229552,N,11704.9374558,E,4,17,0.8,1.6172,M,-8.922,M,01,0004*45
$GPGGA,072504.40,3905.8228484,N,11704.9374397,E,4,17,0.8,1.6029,M,-8.922,M,00,0004*43
$GPGGA,072504.60,3905.8227375,N,11704.9374191,E,4,17,0.8,1.6124,M,-8.922,M,00,0004*4F
$GPGGA,072504.80,3905.8226268,N,11704.9374097,E,4,17,0.8,1.6302,M,-8.922,M,00,0004*4C
$GPGGA,072505.00,3905.8225216,N,11704.9374047,E,4,17,0.8,1.6100,M,-8.922,M,01,0004*43
$GPZDA,072505.00,19,12,2018,,*63
$GPGGA,072505.20,3905.8224093,N,11704.9373913,E,4,16,0.8,1.5965,M,-8.922,M,01,0004*49
$GPGGA,072505.40,3905.8222947,N,11704.9373906,E,4,17,0.8,1.6096,M,-8.922,M,00,0004*4B
$GPGGA,072505.60,3905.8221832,N,11704.9373879,E,4,17,1.1,1.5989,M,-8.922,M,00,0004*4C
$GPGGA,072505.80,3905.8220760,N,11704.9373868,E,4,17,1.0,1.6057,M,-8.922,M,00,0004*43
$GPGGA,072506.00,3905.8219663,N,11704.9373880,E,4,17,1.1,1.6007,M,-8.922,M,01,0004*43
$GPZDA,072506.00,19,12,2018,,*60
$GPGGA,072506.20,3905.8218592,N,11704.9373924,E,4,17,1.0,1.5976,M,-8.922,M,01,0004*4F
$GPGGA,072506.40,3905.8217476,N,11704.9373975,E,4,16,1.0,1.6161,M,-8.922,M,00,0004*44
$GPGGA,072506.60,3905.8216350,N,11704.9374070,E,4,16,1.0,1.6238,M,-8.922,M,00,0004*40
$GPGGA,072506.80,3905.8215222,N,11704.9374224,E,4,16,1.0,1.6218,M,-8.922,M,00,0004*48
$GPGGA,072507.00,3905.8214108,N,11704.9374441,E,4,16,1.0,1.6144,M,-8.922,M,01,0004*45
$GPZDA,072507.00,19,12,2018,,*61
$GPGGA,072507.20,3905.8213002,N,11704.9374731,E,4,16,1.0,1.6168,M,-8.922,M,01,0004*41
$GPGGA,072507.40,3905.8211865,N,11704.9374997,E,4,16,1.0,1.6357,M,-8.922,M,00,0004*41
$GPGGA,072507.60,3905.8210762,N,11704.9375282,E,4,16,1.0,1.6134,M,-8.922,M,00,0004*43
$GPGGA,072507.80,3905.8209641,N,11704.9375618,E,4,16,1.0,1.6086,M,-8.922,M,00,0004*4A
$GPGGA,072508.00,3905.8208556,N,11704.9375950,E,4,16,1.0,1.6077,M,-8.922,M,01,0004*45
$GPZDA,072508.00,19,12,2018,,*6E
$GPGGA,072508.20,3905.8207543,N,11704.9376352,E,4,16,1.0,1.6002,M,-8.922,M,01,0004*45
$GPGGA,072508.40,3905.8206559,N,11704.9376730,E,4,16,1.0,1.5898,M,-8.922,M,00,0004*40
$GPGGA,072508.60,3905.8205629,N,11704.9377069,E,4,16,1.0,1.6023,M,-8.922,M,00,0004*44
$GPGGA,072508.80,3905.8204700,N,11704.9377447,E,4,16,1.0,1.6025,M,-8.922,M,00,0004*4F
$GPGGA,072509.00,3905.8203844,N,11704.9377883,E,4,16,1.0,1.5909,M,-8.922,M,01,0004*4F
$GPZDA,072509.00,19,12,2018,,*6F
$GPGGA,072509.20,3905.8202971,N,11704.9378223,E,4,16,1.0,1.6054,M,-8.922,M,01,0004*46
$GPGGA,072509.40,3905.8202176,N,11704.9378621,E,4,16,1.0,1.5854,M,-8.922,M,00,0004*43
$GPGGA,072509.60,3905.8201329,N,11704.9379003,E,4,16,1.0,1.6096,M,-8.922,M,00,0004*48
$GPGGA,072509.80,3905.8200555,N,11704.9379402,E,4,17,0.9,1.5976,M,-8.922,M,00,0004*42
$GPGGA,072510.00,3905.8199806,N,11704.9379812,E,4,17,0.9,1.5947,M,-8.922,M,01,0004*44
$GPZDA,072510.00,19,12,2018,,*67
$GPGGA,072510.20,3905.8199058,N,11704.9380199,E,4,17,0.9,1.5856,M,-8.922,M,01,0004*48
$GPGGA,072510.40,3905.8198316,N,11704.9380628,E,4,17,0.9,1.6016,M,-8.922,M,00,0004*45
$GPGGA,072510.60,3905.8197601,N,11704.9381047,E,4,17,0.9,1.5911,M,-8.922,M,00,0004*48
$GPGGA,072510.80,3905.8196817,N,11704.9381480,E,4,16,0.9,1.5976,M,-8.922,M,00,0004*41
$GPGGA,072511.00,3905.8196080,N,11704.9381976,E,4,16,0.9,1.5904,M,-8.922,M,01,0004*4E
$GPZDA,072511.00,19,12,2018,,*66
$GPGGA,072511.20,3905.8195316,N,11704.9382470,E,4,16,0.9,1.5866,M,-8.922,M,01,0004*4E
$GPGGA,072511.40,3905.8194613,N,11704.9382963,E,4,16,0.9,1.6027,M,-8.922,M,00,0004*49
$GPGGA,072511.60,3905.8193946,N,11704.9383484,E,4,16,0.9,1.5942,M,-8.922,M,00,0004*4F
$GPGGA,072511.80,3905.8193253,N,11704.9384023,E,4,16,0.9,1.5901,M,-8.922,M,00,0004*47
$GPGGA,072512.00,3905.8192516,N,11704.9384659,E,4,16,0.9,1.5897,M,-8.922,M,01,0004*4F
$GPZDA,072512.00,19,12,2018,,*65
$GPGGA,072512.20,3905.8191729,N,11704.9385309,E,4,16,0.9,1.5927,M,-8.922,M,01,0004*4B
$GPGGA,072512.40,3905.8190965,N,11704.9385956,E,4,16,0.9,1.5840,M,-8.922,M,00,0004*4B
$GPGGA,072512.60,3905.8190277,N,11704.9386582,E,4,16,0.9,1.5823,M,-8.922,M,00,0004*42
$GPGGA,072512.80,3905.8189640,N,11704.9387173,E,4,16,0.9,1.5746,M,-8.922,M,00,0004*43
$GPGGA,072513.00,3905.8188963,N,11704.9387805,E,4,16,0.9,1.5718,M,-8.922,M,01,0004*47
$GPZDA,072513.00,19,12,2018,,*64
$GPGGA,072513.20,3905.8188268,N,11704.9388450,E,4,16,0.9,1.5709,M,-8.922,M,01,0004*46
$GPGGA,072513.40,3905.8187554,N,11704.9389206,E,4,16,0.9,1.5844,M,-8.922,M,00,0004*44
$GPGGA,072513.60,3905.8186828,N,11704.9389952,E,4,16,0.9,1.5901,M,-8.922,M,00,0004*4B
$GPGGA,072513.80,3905.8186175,N,11704.9390714,E,4,16,0.9,1.5886,M,-8.922,M,00,0004*4E
$GPGGA,072514.00,3905.8185491,N,11704.9391437,E,4,16,0.9,1.5984,M,-8.922,M,01,0004*4C
$GPZDA,072514.00,19,12,2018,,*63
$GPGGA,072514.20,3905.8184865,N,11704.9392175,E,4,16,0.9,1.5975,M,-8.922,M,01,0004*46
$GPGGA,072514.40,3905.8184229,N,11704.9392906,E,4,16,0.9,1.6067,M,-8.922,M,00,0004*46
$GPGGA,072514.60,3905.8183624,N,11704.9393651,E,4,16,0.9,1.5988,M,-8.922,M,00,0004*4D
$GPGGA,072514.80,3905.8183055,N,11704.9394428,E,4,16,0.9,1.5935,M,-8.922,M,00,0004*4E
$GPGGA,072515.00,3905.8182468,N,11704.9395178,E,4,16,0.9,1.6031,M,-8.922,M,01,0004*42
$GPZDA,072515.00,19,12,2018,,*62
$GPGGA,072515.20,3905.8181839,N,11704.9395979,E,4,16,0.9,1.6065,M,-8.922,M,01,0004*43
$GPGGA,072515.40,3905.8181220,N,11704.9396829,E,4,16,0.9,1.6026,M,-8.922,M,00,0004*46
$GPGGA,072515.60,3905.8180574,N,11704.9397659,E,4,16,0.9,1.6115,M,-8.922,M,00,0004*4A
$GPGGA,072515.80,3905.8179946,N,11704.9398542,E,4,16,1.0,1.5934,M,-8.922,M,00,0004*49
$GPGGA,072516.00,3905.8179266,N,11704.9399442,E,4,16,0.9,1.6055,M,-8.922,M,01,0004*4F
$GPZDA,072516.00,19,12,2018,,*61
$GPGGA,072516.20,3905.8178635,N,11704.9400386,E,4,16,0.9,1.5990,M,-8.922,M,01,0004*45
$GPGGA,072516.40,3905.8177953,N,11704.9401318,E,4,16,1.0,1.6094,M,-8.922,M,00,0004*42
$GPGGA,072516.60,3905.8177296,N,11704.9402278,E,4,15,1.0,1.6043,M,-8.922,M,00,0004*4F
$GPGGA,072516.80,3905.8176628,N,11704.9403327,E,4,15,0.9,1.6026,M,-8.922,M,00,0004*40
$GPGGA,072517.00,3905.8175935,N,11704.9404356,E,4,15,0.9,1.6189,M,-8.922,M,01,0004*4D
$GPZDA,072517.00,19,12,2018,,*60
$GPGGA,072517.20,3905.8175325,N,11704.9405505,E,4,15,0.9,1.6100,M,-8.922,M,01,0004*44
$GPGGA,072517.40,3905.8174678,N,11704.9406626,E,4,16,0.9,1.6072,M,-8.922,M,00,0004*49
$GPGGA,072517.60,3905.8174056,N,11704.9407783,E,4,16,0.9,1.6076,M,-8.922,M,00,0004*4A
$GPGGA,072517.80,3905.8173453,N,11704.9408974,E,4,16,0.9,1.6119,M,-8.922,M,00,0004*43
$GPGGA,072518.00,3905.8172873,N,11704.9410223,E,4,16,0.9,1.6151,M,-8.922,M,01,0004*46
$GPZDA,072518.00,19,12,2018,,*6F
$GPGGA,072518.20,3905.8172339,N,11704.9411485,E,4,16,0.9,1.6183,M,-8.922,M,01,0004*45
$GPGGA,072518.40,3905.8171879,N,11704.9412812,E,4,16,0.9,1.6103,M,-8.922,M,00,0004*47
$GPGGA,072518.60,3905.8171385,N,11704.9414067,E,4,16,0.9,1.6136,M,-8.922,M,00,0004*47
$GPGGA,072518.80,3905.8170949,N,11704.9415311,E,4,16,0.9,1.6080,M,-8.922,M,00,0004*4D
$GPGGA,072519.00,3905.8170540,N,11704.9416549,E,4,16,0.9,1.6039,M,-8.922,M,01,0004*4A
$GPZDA,072519.00,19,12,2018,,*6E
$GPGGA,072519.20,3905.8170195,N,11704.9417735,E,4,16,0.9,1.5935,M,-8.922,M,01,0004*4A
$GPGGA,072519.40,3905.8169862,N,11704.9418991,E,4,16,0.9,1.5944,M,-8.922,M,00,0004*4D
$GPGGA,072519.60,3905.8169503,N,11704.9420242,E,4,16,0.9,1.6079,M,-8.922,M,00,0004*4F
$GPGGA,072519.80,3905.8169152,N,11704.9421513,E,4,16,0.9,1.6015,M,-8.922,M,00,0004*49
$GPGGA,072520.00,3905.8168797,N,11704.9422825,E,4,17,0.9,1.6056,M,-8.922,M,01,0004*49
$GPZDA,072520.00,19,12,2018,,*64
$GPGGA,072520.20,3905.8168424,N,11704.9424110,E,4,17,0.9,1.6007,M,-8.922,M,01,0004*4D
$GPGGA,072520.40,3905.8168061,N,11704.9425406,E,4,17,0.9,1.6031,M,-8.922,M,00,0004*49
$GPGGA,072520.60,3905.8167640,N,11704.9426756,E,4,17,0.9,1.6133,M,-8.922,M,00,0004*47
$GPGGA,072520.80,3905.8167243,N,11704.9428167,E,4,17,0.9,1.5946,M,-8.922,M,00,0004*4D
$GPGGA,072521.00,3905.8166842,N,11704.9429625,E,4,17,0.9,1.5834,M,-8.922,M,01,0004*4B
$GPZDA,072521.00,19,12,2018,,*65
$GPGGA,072521.20,3905.8166373,N,11704.9431094,E,4,17,0.9,1.6072,M,-8.922,M,01,0004*4C
$GPGGA,072521.40,3905.8166031,N,11704.9432608,E,4,17,0.9,1.5790,M,-8.922,M,00,0004*46
$GPGGA,072521.60,3905.8165674,N,11704.9434074,E,4,17,0.9,1.5947,M,-8.922,M,00,0004*4F
$GPGGA,072521.80,3905.8165375,N,11704.9435638,E,4,17,0.9,1.5818,M,-8.922,M,00,0004*41
$GPGGA,072522.00,3905.8165141,N,11704.9437170,E,4,17,0.9,1.5943,M,-8.922,M,01,0004*48
$GPZDA,072522.00,19,12,2018,,*66
$GPGGA,072522.20,3905.8164942,N,11704.9438710,E,4,17,0.9,1.5720,M,-8.922,M,01,0004*44
$GPGGA,072522.40,3905.8164781,N,11704.9440180,E,4,17,0.9,1.5829,M,-8.922,M,00,0004*44
$GPGGA,072522.60,3905.8164706,N,11704.9441670,E,4,17,0.9,1.5667,M,-8.922,M,00,0004*44
$GPGGA,072522.80,3905.8164608,N,11704.9443074,E,4,17,0.9,1.5896,M,-8.922,M,00,0004*45
$GPGGA,072523.00,3905.8164590,N,11704.9444559,E,4,17,0.9,1.5799,M,-8.922,M,01,0004*42
$GPZDA,072523.00,19,12,2018,,*67
$GPGGA,072523.20,3905.8164517,N,11704.9445891,E,4,17,0.9,1.6356,M,-8.922,M,01,0004*43
$GPGGA,072523.40,3905.8164652,N,11704.9447372,E,4,17,0.9,1.5911,M,-8.922,M,00,0004*48
$GPGGA,072523.60,3905.8164759,N,11704.9448711,E,4,17,0.9,1.5968,M,-8.922,M,00,0004*40
$GPGGA,072523.80,3905.8164913,N,11704.9450031,E,4,16,0.9,1.5910,M,-8.922,M,00,0004*4C
$GPGGA,072524.00,3905.8164976,N,11704.9451260,E,4,16,0.9,1.6223,M,-8.922,M,01,0004*4E
$GPZDA,072524.00,19,12,2018,,*60
$GPGGA,072524.20,3905.8165152,N,11704.9452601,E,4,16,0.9,1.6056,M,-8.921,M,01,0004*40
$GPGGA,072524.40,3905.8165312,N,11704.9453815,E,4,16,0.9,1.6133,M,-8.921,M,01,0004*48
$GPGGA,072524.60,3905.8165495,N,11704.9454969,E,4,17,0.9,1.6210,M,-8.921,M,01,0004*4C
$GPGGA,072524.80,3905.8165679,N,11704.9456015,E,4,16,0.9,1.6350,M,-8.921,M,01,0004*46
$GPGGA,072525.00,3905.8165872,N,11704.9456919,E,4,16,0.9,1.6234,M,-8.921,M,02,0004*4F
$GPZDA,072525.00,19,12,2018,,*61
$GPGGA,072525.20,3905.8166051,N,11704.9457734,E,4,16,0.9,1.6143,M,-8.921,M,02,0004*44
$GPGGA,072525.40,3905.8166242,N,11704.9458466,E,4,16,0.9,1.6077,M,-8.921,M,00,0004*4D
$GPGGA,072525.60,3905.8166384,N,11704.9459153,E,4,16,0.9,1.6050,M,-8.921,M,00,0004*43
$GPGGA,072525.80,3905.8166549,N,11704.9459755,E,4,16,0.9,1.5978,M,-8.921,M,00,0004*4A
$GPGGA,072526.00,3905.8166654,N,11704.9460292,E,4,16,0.9,1.6119,M,-8.921,M,01,0004*47
$GPZDA,072526.00,19,12,2018,,*62
$GPGGA,072526.20,3905.8166754,N,11704.9460749,E,4,16,0.9,1.6109,M,-8.921,M,01,0004*46
$GPGGA,072526.40,3905.8166821,N,11704.9461023,E,4,16,0.9,1.6280,M,-8.921,M,00,0004*44
$GPGGA,072526.60,3905.8166893,N,11704.9461238,E,4,16,0.9,1.6045,M,-8.921,M,00,0004*4C
$GPGGA,072526.80,3905.8166936,N,11704.9461420,E,4,16,0.9,1.6050,M,-8.921,M,00,0004*47
$GPGGA,072527.00,3905.8166978,N,11704.9461633,E,4,16,0.9,1.6082,M,-8.921,M,01,0004*4A
$GPZDA,072527.00,19,12,2018,,*63
$GPGGA,072527.20,3905.8167002,N,11704.9461800,E,4,16,0.9,1.6102,M,-8.921,M,01,0004*4A
$GPGGA,072527.40,3905.8167040,N,11704.9461954,E,4,16,0.9,1.5963,M,-8.921,M,00,0004*47
$GPGGA,072527.60,3905.8167078,N,11704.9462045,E,4,16,0.9,1.5925,M,-8.921,M,00,0004*46
$GPGGA,072527.80,3905.8167068,N,11704.9462055,E,4,17,0.9,1.5951,M,-8.921,M,00,0004*4A
$GPGGA,072528.00,3905.8167058,N,11704.9462039,E,4,17,0.9,1.5969,M,-8.921,M,01,0004*4E
$GPZDA,072528.00,19,12,2018,,*6C
$GPGGA,072528.20,3905.8167048,N,11704.9462009,E,4,17,0.9,1.6004,M,-8.921,M,01,0004*4F
$GPGGA,072528.40,3905.8167052,N,11704.9462026,E,4,17,0.9,1.5997,M,-8.921,M,00,0004*4E
$GPGGA,072528.60,3905.8167053,N,11704.9462021,E,4,17,0.9,1.6004,M,-8.921,M,00,0004*4A
