$GPGGA,072034.00,3905.8186042,N,11704.9435945,E,4,18,0.8,1.6436,M,-8.922,M,01,0004*4B
$GPZDA,072034.00,19,12,2018,,*64
$GPGGA,072034.20,3905.8186041,N,11704.9435953,E,4,18,0.8,1.6440,M,-8.922,M,01,0004*4C
$GPGGA,072034.40,3905.8186042,N,11704.9435944,E,4,18,0.8,1.6397,M,-8.922,M,01,0004*42
$GPGGA,072034.60,3905.8186010,N,11704.9435935,E,4,18,0.8,1.6412,M,-8.922,M,01,0004*4B
$GPGGA,072034.80,3905.8185850,N,11704.9435917,E,4,18,0.8,1.6394,M,-8.922,M,01,0004*43
$GPGGA,072035.00,3905.8185590,N,11704.9435895,E,4,18,0.8,1.6372,M,-8.922,M,02,0004*4B
$GPZDA,072035.00,19,12,2018,,*65
$GPGGA,072035.20,3905.8185279,N,11704.9435856,E,4,18,0.8,1.6395,M,-8.922,M,02,0004*4F
$GPGGA,072035.40,3905.8184891,N,11704.9435737,E,4,18,0.8,1.6475,M,-8.922,M,00,0004*47
$GPGGA,072035.60,3905.8184515,N,11704.9435694,E,4,18,0.8,1.6340,M,-8.922,M,00,0004*4D
$GPGGA,072035.80,3905.8184056,N,11704.9435604,E,4,18,0.8,1.6425,M,-8.922,M,00,0004*4C
$GPGGA,072036.00,3905.8183629,N,11704.9435523,E,4,18,0.8,1.6275,M,-8.922,M,01,0004*4A
$GPZDA,072036.00,19,12,2018,,*66
$GPGGA,072036.20,3905.8183160,N,11704.9435419,E,4,18,0.8,1.6260,M,-8.922,M,01,0004*4E
$GPGGA,072036.40,3905.8182676,N,11704.9435263,E,4,18,0.8,1.6295,M,-8.922,M,00,0004*49
$GPGGA,072036.60,3905.8182144,N,11704.9435128,E,4,18,0.8,1.6329,M,-8.922,M,00,0004*47
$GPGGA,072036.80,3905.8181603,N,11704.9434975,E,4,18,0.8,1.6330,M,-8.922,M,00,0004*47
$GPGGA,072037.00,3905.8181036,N,11704.9434791,E,4,18,0.8,1.6271,M,-8.922,M,01,0004*4F
$GPZDA,072037.00,19,12,2018,,*67
$GPGGA,072037.20,3905.8180466,N,11704.9434651,E,4,18,0.8,1.6241,M,-8.922,M,01,0004*43
$GPGGA,072037.40,3905.8179888,N,11704.9434468,E,4,18,0.8,1.6206,M,-8.922,M,00,0004*45
$GPGGA,072037.60,3905.8179302,N,11704.9434329,E,4,18,0.8,1.6321,M,-8.922,M,00,0004*48
$GPGGA,072037.80,3905.8178692,N,11704.9434198,E,4,18,0.8,1.6288,M,-8.922,M,00,0004*41
$GPGGA,072038.00,3905.8178070,N,11704.9434066,E,4,18,0.8,1.6261,M,-8.922,M,01,0004*4A
$GPZDA,072038.00,19,12,2018,,*68
$GPGGA,072038.20,3905.8177419,N,11704.9433916,E,4,18,0.8,1.6303,M,-8.922,M,01,0004*40
$GPGGA,072038.40,3905.8176766,N,11704.9433739,E,4,18,0.8,1.6286,M,-8.922,M,00,0004*42
$GPGGA,072038.60,3905.8176152,N,11704.9433604,E,4,18,0.9,1.6250,M,-8.922,M,00,0004*44
$GPGGA,072038.80,3905.8175534,N,11704.9433419,E,4,18,0.8,1.6185,M,-8.922,M,00,0004*49
$GPGGA,072039.00,3905.8174897,N,11704.9433249,E,4,18,0.8,1.6204,M,-8.922,M,01,0004*4D
$GPZDA,072039.00,19,12,2018,,*69
$GPGGA,072039.20,3905.8174262,N,11704.9433060,E,4,18,0.8,1.6105,M,-8.922,M,01,0004*44
$GPGGA,072039.40,3905.8173597,N,11704.9432878,E,4,18,0.8,1.6274,M,-8.922,M,00,0004*4C
$GPGGA,072039.60,3905.8172953,N,11704.9432726,E,4,18,0.8,1.6107,M,-8.922,M,00,0004*48
$GPGGA,072039.80,3905.8172341,N,11704.9432564,E,4,18,0.8,1.6084,M,-8.922,M,00,0004*41
$GPGGA,072040.00,3905.8171729,N,11704.9432427,E,4,18,0.8,1.6121,M,-8.922,M,01,0004*47
$GPZDA,072040.00,19,12,2018,,*67
$GPGGA,072040.20,3905.8171138,N,11704.9432317,E,4,18,0.8,1.6151,M,-8.922,M,01,0004*40
$GPGGA,072040.40,3905.8170512,N,11704.9432114,E,4,18,0.8,1.6193,M,-8.922,M,00,0004*45
$GPGGA,072040.60,3905.8169932,N,11704.9432002,E,4,18,0.8,1.5997,M,-8.922,M,00,0004*48
$GPGGA,072040.80,3905.8169289,N,11704.9431841,E,4,18,0.8,1.6079,M,-8.922,M,00,0004*4B
$GPGGA,072041.00,3905.8168730,N,11704.9431755,E,4,18,0.8,1.5964,M,-8.922,M,01,0004*49
$GPZDA,072041.00,19,12,2018,,*66
$GPGGA,072041.20,3905.8168133,N,11704.9431606,E,4,18,0.8,1.5992,M,-8.922,M,01,0004*40
$GPGGA,072041.40,3905.8167505,N,11704.9431453,E,4,18,0.8,1.6176,M,-8.922,M,00,0004*4A
$GPGGA,072041.60,3905.8166915,N,11704.9431316,E,4,18,0.8,1.6080,M,-8.922,M,00,0004*4A
$GPGGA,072041.80,3905.8166327,N,11704.9431195,E,4,18,0.9,1.6009,M,-8.922,M,00,0004*46
$GPGGA,072042.00,3905.8165648,N,11704.9431038,E,4,18,0.8,1.5967,M,-8.922,M,01,0004*46
$GPZDA,072042.00,19,12,2018,,*65
$GPGGA,072042.20,3905.8164942,N,11704.9430921,E,4,18,0.8,1.5944,M,-8.922,M,01,0004*41
$GPGGA,072042.40,3905.8164210,N,11704.9430691,E,4,18,0.8,1.6051,M,-8.922,M,01,0004*41
$GPGGA,072042.60,3905.8163547,N,11704.9430541,E,4,18,0.8,1.5924,M,-8.922,M,00,0004*46
$GPGGA,072042.80,3905.8162892,N,11704.9430307,E,4,18,0.8,1.5691,M,-8.922,M,00,0004*49
$GPGGA,072043.00,3905.8162190,N,11704.9430128,E,4,18,0.8,1.5878,M,-8.922,M,01,0004*4C
$GPZDA,072043.00,19,12,2018,,*64
$GPGGA,072043.20,3905.8161498,N,11704.9429993,E,4,18,0.8,1.5738,M,-8.922,M,01,0004*4B
$GPGGA,072043.40,3905.8160792,N,11704.9429774,E,4,18,0.8,1.5774,M,-8.922,M,00,0004*4B
$GPGGA,072043.60,3905.8160067,N,11704.9429554,E,4,18,0.9,1.5668,M,-8.922,M,00,0004*49
$GPGGA,072043.80,3905.8159388,N,11704.9429318,E,4,18,0.9,1.5749,M,-8.922,M,00,0004*43
$GPGGA,072044.00,3905.8158728,N,11704.9429155,E,4,18,0.9,1.5677,M,-8.922,M,01,0004*45
$GPZDA,072044.00,19,12,2018,,*63
$GPGGA,072044.20,3905.8158059,N,11704.9428927,E,4,18,0.9,1.5730,M,-8.922,M,01,0004*48
$GPGGA,072044.40,3905.8157468,N,11704.9428753,E,4,18,0.9,1.5636,M,-8.922,M,00,0004*4C
$GPGGA,072044.60,3905.8156856,N,11704.9428554,E,4,19,0.8,1.5579,M,-8.922,M,00,0004*43
$GPGGA,072044.80,3905.8156284,N,11704.9428338,E,4,19,0.8,1.5585,M,-8.922,M,00,0004*47
$GPGGA,072045.00,3905.8155732,N,11704.9428139,E,4,19,0.8,1.5444,M,-8.922,M,01,0004*4B
$GPZDA,072045.00,19,12,2018,,*62
$GPGGA,072045.20,3905.8155162,N,11704.9427956,E,4,19,0.8,1.5574,M,-8.922,M,01,0004*46
$GPGGA,072045.40,3905.8154626,N,11704.9427772,E,4,19,0.7,1.5557,M,-8.922,M,00,0004*41
$GPGGA,072045.60,3905.8154080,N,11704.9427557,E,4,19,0.7,1.5650,M,-8.922,M,00,0004*48
$GPGGA,072045.80,3905.8153531,N,11704.9427378,E,4,19,0.7,1.5648,M,-8.922,M,00,0004*4C
$GPGGA,072046.00,3905.8152990,N,11704.9427222,E,4,19,0.7,1.5496,M,-8.922,M,01,0004*4F
$GPZDA,072046.00,19,12,2018,,*61
$GPGGA,072046.20,3905.8152397,N,11704.9427006,E,4,19,0.7,1.5595,M,-8.922,M,01,0004*46
$GPGGA,072046.40,3905.8151832,N,11704.9426899,E,4,19,0.7,1.5505,M,-8.922,M,00,0004*40
$GPGGA,072046.60,3905.8151190,N,11704.9426674,E,4,19,0.8,1.5464,M,-8.922,M,00,0004*47
$GPGGA,072046.80,3905.8150536,N,11704.9426488,E,4,19,0.7,1.5478,M,-8.922,M,00,0004*43
$GPGGA,072047.00,3905.8149822,N,11704.9426268,E,4,19,0.7,1.5434,M,-8.922,M,01,0004*4B
$GPZDA,072047.00,19,12,2018,,*60
$GPGGA,072047.20,3905.8149115,N,11704.9426076,E,4,19,0.7,1.5413,M,-8.922,M,01,0004*4C
$GPGGA,072047.40,3905.8148430,N,11704.9425906,E,4,19,0.8,1.5397,M,-8.922,M,00,0004*41
$GPGGA,072047.60,3905.8147673,N,11704.9425700,E,4,19,0.7,1.5413,M,-8.922,M,00,0004*45
$GPGGA,072047.80,3905.8146949,N,11704.9425511,E,4,19,0.7,1.5465,M,-8.922,M,00,0004*4F
$GPGGA,072048.00,3905.8146220,N,11704.9425309,E,4,19,0.7,1.5329,M,-8.922,M,01,0004*4D
$GPZDA,072048.00,19,12,2018,,*6F
$GPGGA,072048.20,3905.8145520,N,11704.9425116,E,4,19,0.7,1.5311,M,-8.922,M,01,0004*4C
$GPGGA,072048.40,3905.8144788,N,11704.9424943,E,4,19,0.7,1.5290,M,-8.922,M,00,0004*4B
$GPGGA,072048.60,3905.8144095,N,11704.9424725,E,4,19,0.7,1.5367,M,-8.922,M,00,0004*45
$GPGGA,072048.80,3905.8143422,N,11704.9424591,E,4,19,0.7,1.5249,M,-8.922,M,00,0004*44
$GPGGA,072049.00,3905.8142697,N,11704.9424369,E,4,19,0.7,1.5253,M,-8.922,M,01,0004*4B
$GPZDA,072049.00,19,12,2018,,*6E
$GPGGA,072049.20,3905.8141925,N,11704.9424132,E,4,19,0.7,1.5191,M,-8.922,M,01,0004*4D
$GPGGA,072049.40,3905.8141217,N,11704.9423960,E,4,19,0.7,1.5158,M,-8.922,M,00,0004*4D
$GPGGA,072049.60,3905.8140480,N,11704.9423718,E,4,19,0.7,1.5183,M,-8.922,M,00,0004*41
$GPGGA,072049.80,3905.8139763,N,11704.9423518,E,4,19,0.7,1.5155,M,-8.922,M,00,0004*46
$GPGGA,072050.00,3905.8138998,N,11704.9423286,E,4,19,0.7,1.5100,M,-8.922,M,01,0004*4C
$GPZDA,072050.00,19,12,2018,,*66
$GPGGA,072050.20,3905.8138235,N,11704.9423080,E,4,19,0.7,1.5026,M,-8.922,M,01,0004*43
$GPGGA,072050.40,3905.8137445,N,11704.9422844,E,4,19,0.7,1.5075,M,-8.922,M,00,0004*4D
$GPGGA,072050.60,3905.8136623,N,11704.9422586,E,4,19,0.7,1.5153,M,-8.922,M,00,0004*4A
$GPGGA,072050.80,3905.8135803,N,11704.9422372,E,4,19,0.7,1.5103,M,-8.922,M,00,0004*43
$GPGGA,072051.00,3905.8135028,N,11704.9422134,E,4,19,0.7,1.5136,M,-8.922,M,01,0004*4C
$GPZDA,072051.00,19,12,2018,,*67
$GPGGA,072051.20,3905.8134226,N,11704.9421900,E,4,19,0.7,1.5122,M,-8.922,M,01,0004*4A
$GPGGA,072051.40,3905.8133472,N,11704.9421717,E,4,19,0.7,1.5094,M,-8.922,M,00,0004*49
$GPGGA,072051.60,3905.8132711,N,11704.9421473,E,4,19,0.7,1.5052,M,-8.922,M,00,0004*47
$GPGGA,072051.80,3905.8131976,N,11704.9421251,E,4,19,0.7,1.4953,M,-8.922,M,00,0004*4A
$GPGGA,072052.00,3905.8131274,N,11704.9421072,E,4,19,0.7,1.4948,M,-8.922,M,01,0004*40
$GPZDA,072052.00,19,12,2018,,*64
$GPGGA,072052.20,3905.8130630,N,11704.9420921,E,4,19,0.7,1.4808,M,-8.922,M,01,0004*4C
$GPGGA,072052.40,3905.8129966,N,11704.9420725,E,4,19,0.7,1.4863,M,-8.922,M,01,0004*49
$GPGGA,072052.60,3905.8129327,N,11704.9420533,E,4,19,0.7,1.4858,M,-8.922,M,00,0004*48
$GPGGA,072052.80,3905.8128683,N,11704.9420366,E,4,19,0.7,1.4835,M,-8.922,M,00,0004*41
$GPGGA,072053.00,3905.8128038,N,11704.9420193,E,4,19,0.7,1.4807,M,-8.922,M,01,0004*46
$GPZDA,072053.00,19,12,2018,,*65
$GPGGA,072053.20,3905.8127380,N,11704.9420021,E,4,19,0.7,1.4623,M,-8.922,M,01,0004*4B
$GPGGA,072053.40,3905.8126687,N,11704.9419856,E,4,19,0.7,1.4749,M,-8.922,M,00,0004*40
$GPGGA,072053.60,3905.8125979,N,11704.9419695,E,4,19,0.7,1.4702,M,-8.922,M,00,0004*41
$GPGGA,072053.80,3905.8125294,N,11704.9419557,E,4,19,0.7,1.4634,M,-8.922,M,00,0004*4E
$GPGGA,072054.00,3905.8124617,N,11704.9419392,E,4,19,0.7,1.4661,M,-8.922,M,01,0004*41
$GPZDA,072054.00,19,12,2018,,*62
$GPGGA,072054.20,3905.8123963,N,11704.9419253,E,4,19,0.7,1.4585,M,-8.922,M,01,0004*4D
$GPGGA,072054.40,3905.8123265,N,11704.9419077,E,4,19,0.7,1.4634,M,-8.922,M,00,0004*4A
$GPGGA,072054.60,3905.8122582,N,11704.9418919,E,4,19,0.7,1.4765,M,-8.922,M,00,0004*42
$GPGGA,072054.80,3905.8121962,N,11704.9418794,E,4,19,0.7,1.4678,M,-8.922,M,00,0004*4B
$GPGGA,072055.00,3905.8121308,N,11704.9418648,E,4,19,0.8,1.4702,M,-8.922,M,01,0004*46
$GPZDA,072055.00,19,12,2018,,*63
$GPGGA,072055.20,3905.8120699,N,11704.9418502,E,4,19,0.8,1.4616,M,-8.922,M,01,0004*41
$GPGGA,072055.40,3905.8120064,N,11704.9418361,E,4,19,0.7,1.4728,M,-8.922,M,00,0004*42
$GPGGA,072055.60,3905.8119434,N,11704.9418189,E,4,19,0.9,1.4706,M,-8.922,M,00,0004*4D
$GPGGA,072055.80,3905.8118793,N,11704.9418030,E,4,19,0.8,1.4577,M,-8.922,M,00,0004*4A
$GPGGA,072056.00,3905.8118116,N,11704.9417892,E,4,19,0.7,1.4557,M,-8.922,M,01,0004*49
$GPZDA,072056.00,19,12,2018,,*60
$GPGGA,072056.20,3905.8117439,N,11704.9417737,E,4,19,0.8,1.4514,M,-8.922,M,01,0004*44
$GPGGA,072056.40,3905.8116747,N,11704.9417604,E,4,19,0.8,1.4551,M,-8.922,M,00,0004*48
$GPGGA,072056.60,3905.8116094,N,11704.9417408,E,4,19,0.8,1.4448,M,-8.922,M,00,0004*44
$GPGGA,072056.80,3905.8115432,N,11704.9417203,E,4,19,0.7,1.4412,M,-8.922,M,00,0004*4C
$GPGGA,072057.00,3905.8114813,N,11704.9417020,E,4,19,0.7,1.4460,M,-8.922,M,01,0004*4C
$GPZDA,072057.00,19,12,2018,,*61
$GPGGA,072057.20,3905.8114222,N,11704.9416897,E,4,19,0.9,1.4516,M,-8.922,M,01,0004*4D
$GPGGA,072057.40,3905.8113656,N,11704.9416681,E,4,18,0.9,1.4461,M,-8.922,M,00,0004*43
$GPGGA,072057.60,3905.8113107,N,11704.9416528,E,4,18,0.9,1.4503,M,-8.922,M,00,0004*47
$GPGGA,072057.80,3905.8112600,N,11704.9416335,E,4,17,0.9,1.4377,M,-8.922,M,00,0004*48
$GPGGA,072058.00,3905.8112054,N,11704.9416160,E,4,18,0.9,1.4413,M,-8.922,M,01,0004*41
$GPZDA,072058.00,19,12,2018,,*6E
$GPGGA,072058.20,3905.8111581,N,11704.9415985,E,4,17,0.9,1.4223,M,-8.922,M,01,0004*47
$GPGGA,072058.40,3905.8111066,N,11704.9415804,E,4,17,0.9,1.4236,M,-8.922,M,00,0004*40
$GPGGA,072058.60,3905.8110567,N,11704.9415615,E,4,17,0.9,1.4182,M,-8.922,M,00,0004*45
$GPGGA,072058.80,3905.8109995,N,11704.9415404,E,4,17,0.9,1.4217,M,-8.922,M,00,0004*4F
$GPGGA,072059.00,3905.8109388,N,11704.9415198,E,4,17,0.9,1.4226,M,-8.922,M,01,0004*43
$GPZDA,072059.00,19,12,2018,,*6F
$GPGGA,072059.20,3905.8108762,N,11704.9414997,E,4,17,0.9,1.4266,M,-8.922,M,01,0004*42
$GPGGA,072059.40,3905.8108112,N,11704.9414790,E,4,16,0.9,1.4238,M,-8.922,M,00,0004*47
$GPGGA,072059.60,3905.8107436,N,11704.9414592,E,4,16,0.9,1.4255,M,-8.922,M,00,0004*42
$GPGGA,072059.80,3905.8106735,N,11704.9414375,E,4,16,0.9,1.4167,M,-8.922,M,00,0004*40
$GPGGA,072100.00,3905.8106029,N,11704.9414161,E,4,16,0.9,1.4180,M,-8.922,M,01,0004*40
$GPZDA,072100.00,19,12,2018,,*62
$GPGGA,072100.20,3905.8105381,N,11704.9413912,E,4,16,0.9,1.4157,M,-8.922,M,01,0004*41
$GPGGA,072100.40,3905.8104757,N,11704.9413733,E,4,16,0.9,1.4153,M,-8.922,M,00,0004*41
$GPGGA,072100.60,3905.8104203,N,11704.9413536,E,4,16,0.9,1.4074,M,-8.922,M,00,0004*44
$GPGGA,072100.80,3905.8103689,N,11704.9413410,E,4,16,0.9,1.4165,M,-8.922,M,00,0004*4F
$GPGGA,072101.00,3905.8103265,N,11704.9413288,E,4,16,0.9,1.4167,M,-8.922,M,01,0004*44
$GPZDA,072101.00,19,12,2018,,*63
$GPGGA,072101.20,3905.8102920,N,11704.9413184,E,4,16,0.9,1.4114,M,-8.922,M,01,0004*46
$GPGGA,072101.40,3905.8102668,N,11704.9413109,E,4,16,0.9,1.4019,M,-8.922,M,00,0004*4B
$GPGGA,072101.60,3905.8102446,N,11704.9413035,E,4,16,0.9,1.4008,M,-8.922,M,00,0004*49
$GPGGA,072101.80,3905.8102307,N,11704.9412964,E,4,16,0.9,1.3967,M,-8.922,M,00,0004*4E
$GPGGA,072102.00,3905.8102217,N,11704.9412935,E,4,16,0.9,1.3995,M,-8.922,M,01,0004*4D
$GPZDA,072102.00,19,12,2018,,*60
$GPGGA,072102.20,3905.8102148,N,11704.9412932,E,4,16,0.9,1.4010,M,-8.922,M,01,0004*42
$GPGGA,072102.40,3905.8102077,N,11704.9412917,E,4,16,0.9,1.4013,M,-8.922,M,01,0004*4D
$GPGGA,072102.60,3905.8102056,N,11704.9412897,E,4,17,0.9,1.3976,M,-8.922,M,00,0004*48
$GPGGA,072102.80,3905.8102053,N,11704.9412913,E,4,17,0.9,1.3962,M,-8.922,M,00,0004*4B
$GPGGA,072103.00,3905.8102052,N,11704.9412915,E,4,17,0.9,1.3941,M,-8.922,M,01,0004*45
$GPZDA,072103.00,19,12,2018,,*61
$GPGGA,072103.20,3905.8102051,N,11704.9412920,E,4,17,0.9,1.3944,M,-8.922,M,01,0004*47
$GPGGA,072103.40,3905.8102042,N,11704.9412910,E,4,17,0.9,1.3986,M,-8.922,M,00,0004*4F
$GPGGA,072103.60,3905.8102049,N,11704.9412923,E,4,17,0.9,1.4027,M,-8.922,M,00,0004*43
